{
	"content": [{
		"id": 10457,
		"latitude": 50.8061332703,
		"longitude": 7.1910204887,
		"icon": "",
		"title": "Kindertagesstätte Arche Noah",
		"subtitle": "Verbundfamilienzentrum Brückberg",
		"address": "Jahnstraße 4, 53721 Siegburg",
		"openHours": "",
		"description": "",
		"url": "https://siegburg.de/familie-bildung/kindergaerten-kindertagespflege/brueckberg/kindertagesstaette-arche-noah/index.html#top",
		"cityId": 16,
		"categoryName": "Kindergartens",
		"distance": 517
	}, {
		"id": 10458,
		"latitude": 50.8035888672,
		"longitude": 7.1904158592,
		"icon": "",
		"title": "Kindertagesstätte PänzHuus",
		"subtitle": "Montessori-Kinderhaus",
		"address": "Arndtstraße 2a, 53721 Siegburg",
		"openHours": "",
		"description": "",
		"url": "https://siegburg.de/familie-bildung/kindergaerten-kindertagespflege/brueckberg/kindertagesstaette-paenzhuus/index.html",
		"cityId": 16,
		"categoryName": "Kindergartens",
		"distance": 517
	}, {
		"id": 10459,
		"latitude": 50.8043670654,
		"longitude": 7.1962761879,
		"icon": "",
		"title": "Kindertagesstätte kinderreich e.V. Brückberg",
		"subtitle": "",
		"address": "Aggerstraße 118a, 53721 Siegburg",
		"openHours": "",
		"description": "",
		"url": "https://siegburg.de/familie-bildung/kindergaerten-kindertagespflege/brueckberg/kindertagesstaette-kinderreich-e-v-brueckberg/index.html",
		"cityId": 16,
		"categoryName": "Kindergartens",
		"distance": 517
	}, {
		"id": 10463,
		"latitude": 50.7988586426,
		"longitude": 7.2019004822,
		"icon": "",
		"title": "Kindertageseinrichtung Schatzinsel",
		"subtitle": "Am idillischen Mühlengraben",
		"address": "Wilhelmstraße 124, 53721 Siegburg",
		"openHours": "",
		"description": "",
		"url": "https://siegburg.de/familie-bildung/kindergaerten-kindertagespflege/innenstadt/kindertageseinrichtung-schatzinsel/index.html",
		"cityId": 16,
		"categoryName": "Kindergartens",
		"distance": 518
	}, {
		"id": 10464,
		"latitude": 50.798500061,
		"longitude": 7.2000408173,
		"icon": "",
		"title": "Kindertagesstätt Murkel Haus III",
		"subtitle": "",
		"address": "Von-Stephan-Straße 33, 53721 Siegburg",
		"openHours": "",
		"description": "",
		"url": "https://siegburg.de/familie-bildung/kindergaerten-kindertagespflege/innenstadt/kindertagesstaette-murkel-haus-3/index.html",
		"cityId": 16,
		"categoryName": "Kindergartens",
		"distance": 518
	}, {
		"id": 10466,
		"latitude": 50.7967300415,
		"longitude": 7.2004876137,
		"icon": "",
		"title": "Kindertagesstätte Wirbelwind",
		"subtitle": "Ein Kindergarten im Herzen von Siegburg",
		"address": "Alleestraße 18, 53721 Siegburg",
		"openHours": "",
		"description": "",
		"url": "https://siegburg.de/familie-bildung/kindergaerten-kindertagespflege/innenstadt/kindertagesstaette-wirbelwind/index.html",
		"cityId": 16,
		"categoryName": "Kindergartens",
		"distance": 518
	}, {
		"id": 10473,
		"latitude": 50.8045692444,
		"longitude": 7.2078700066,
		"icon": "",
		"title": "Kindertagesstätte St. Anno",
		"subtitle": "Städtische Kindertageseinrichtung St. Anno",
		"address": "Bambergstr. 31, 53721 Siegburg",
		"openHours": "",
		"description": "",
		"url": "https://siegburg.de/familie-bildung/kindergaerten-kindertagespflege/nord/kindertagesstaette-st-anno/index.html",
		"cityId": 16,
		"categoryName": "Kindergartens",
		"distance": 518
	}, {
		"id": 10474,
		"latitude": 50.806137085,
		"longitude": 7.2101745605,
		"icon": "",
		"title": "Kindertagesstätte Murkel Haus II",
		"subtitle": "",
		"address": "Knütgenstraße 14-16, 53721 Siegburg",
		"openHours": "",
		"description": "",
		"url": "https://siegburg.de/familie-bildung/kindergaerten-kindertagespflege/nord/kindertagesstaette-murkel-haus-ii/index.html",
		"cityId": 16,
		"categoryName": "Kindergartens",
		"distance": 518
	}, {
		"id": 10479,
		"latitude": 50.7949180603,
		"longitude": 7.1945428848,
		"icon": "",
		"title": "Kindertagesstätte kinderreich e. V. Zange",
		"subtitle": "Partnerschaft und Demokratie in offenem Konzept",
		"address": "Katharinenstraße 83a, 53721 Siegburg",
		"openHours": "",
		"description": "",
		"url": "https://siegburg.de/familie-bildung/kindergaerten-kindertagespflege/zange/kindertagesstaette-kinderreich-e-v-zange/index.html",
		"cityId": 16,
		"categoryName": "Kindergartens",
		"distance": 518
	}, {
		"id": 10480,
		"latitude": 50.7924842834,
		"longitude": 7.2012419701,
		"icon": "",
		"title": "Kindertagesstätte Rabennest",
		"subtitle": "",
		"address": "Hohenzollernstraße 122, 53721 Siegburg",
		"openHours": "",
		"description": "",
		"url": "https://siegburg.de/familie-bildung/kindergaerten-kindertagespflege/zange/kindertagesstaette-rabennest/index.html",
		"cityId": 16,
		"categoryName": "Kindergartens",
		"distance": 518
	}, {
		"id": 10460,
		"latitude": 50.7904090881,
		"longitude": 7.2160482407,
		"icon": "",
		"title": "Kindertagesstätte ARKADAS",
		"subtitle": "Verbundfamilienzentrum Deichhaus",
		"address": "Martin-Opitz-Straße 1, 53721 Siegburg",
		"openHours": "",
		"description": "",
		"url": "https://siegburg.de/familie-bildung/kindergaerten-kindertagespflege/deichhaus/kindertagesstaette-arkadas/index.html",
		"cityId": 16,
		"categoryName": "Kindergartens",
		"distance": 519
	}, {
		"id": 10461,
		"latitude": 50.7891426086,
		"longitude": 7.2155404091,
		"icon": "",
		"title": "Kindertagesstätte Deichhaus-Küken",
		"subtitle": "Verbundfamilienzentrum Deichhaus",
		"address": "Frankfurterstraße 92, 53721 Siegburg",
		"openHours": "",
		"description": "",
		"url": "https://siegburg.de/familie-bildung/kindergaerten-kindertagespflege/deichhaus/kindertagesstaette-deichhaus-kueken/index.html",
		"cityId": 16,
		"categoryName": "Kindergartens",
		"distance": 519
	}, {
		"id": 10462,
		"latitude": 50.7872047424,
		"longitude": 7.2191243172,
		"icon": "",
		"title": "Kindertagesstätte Deichmäuse",
		"subtitle": "Verbundfamilienzentrum Deichhaus",
		"address": "Schubertstraße 7, 53721 Siegburg",
		"openHours": "",
		"description": "",
		"url": "https://siegburg.de/familie-bildung/kindergaerten-kindertagespflege/deichhaus/kindertagesstaette-deichm-use/index.html",
		"cityId": 16,
		"categoryName": "Kindergartens",
		"distance": 519
	}, {
		"id": 10465,
		"latitude": 50.7972259521,
		"longitude": 7.2100067139,
		"icon": "",
		"title": "Katholische Kindertagesstätte St. Servatius",
		"subtitle": "Mitglied im Kath. Familienzentrum",
		"address": "Bergstraße 31, 53721 Siegburg",
		"openHours": "",
		"description": "",
		"url": "https://siegburg.de/familie-bildung/kindergaerten-kindertagespflege/innenstadt/katholische-kindertagesstaette-st-servatius/index.html",
		"cityId": 16,
		"categoryName": "Kindergartens",
		"distance": 519
	}, {
		"id": 10477,
		"latitude": 50.7989234924,
		"longitude": 7.2226843834,
		"icon": "",
		"title": "Kindertagesstätte Pauline",
		"subtitle": "Familienzentrum Wolsdorf",
		"address": "Lambertstraße 39, 53721 Siegburg",
		"openHours": "",
		"description": "",
		"url": "https://siegburg.de/familie-bildung/kindergaerten-kindertagespflege/wolsdorf/kindertagesstaette-pauline/index.html",
		"cityId": 16,
		"categoryName": "Kindergartens",
		"distance": 519
	}, {
		"id": 10478,
		"latitude": 50.8002738953,
		"longitude": 7.214984417,
		"icon": "",
		"title": "Kindertagesstätte Kinderburg Veronika Keller",
		"subtitle": "",
		"address": "Am Bertrams Weiher 1, 53721 Siegburg",
		"openHours": "",
		"description": "",
		"url": "https://siegburg.de/familie-bildung/kindergaerten-kindertagespflege/wolsdorf/kindertagesstaette-kinderburg-veronika-keller/index.html",
		"cityId": 16,
		"categoryName": "Kindergartens",
		"distance": 519
	}, {
		"id": 10475,
		"latitude": 50.8111953735,
		"longitude": 7.2292265892,
		"icon": "",
		"title": "Kindertagesstätte - Die kleinen Strolche",
		"subtitle": "VerbundFamilienzentrum Stallberg-Braschoß",
		"address": "Winterbergerstraße 16a, 53721 Siegburg",
		"openHours": "",
		"description": "",
		"url": "https://siegburg.de/familie-bildung/kindergaerten-kindertagespflege/stallberg/kindertagesstaette-die-kleinen-strolche/index.html",
		"cityId": 16,
		"categoryName": "Kindergartens",
		"distance": 520
	}, {
		"id": 10476,
		"latitude": 50.8058662415,
		"longitude": 7.2328548431,
		"icon": "",
		"title": "Kindertagesstätte - Die Waldwichtel",
		"subtitle": "Familienzentrum Stallberg / Braschoß",
		"address": "Hermann-Löns-Straße 38, 53721 Siegburg",
		"openHours": "",
		"description": "",
		"url": "https://siegburg.de/familie-bildung/kindergaerten-kindertagespflege/stallberg/kindertagesstaette-die-waldwichtel/index.html",
		"cityId": 16,
		"categoryName": "Kindergartens",
		"distance": 520
	}, {
		"id": 10467,
		"latitude": 50.8072992,
		"longitude": 7.2477594,
		"icon": "",
		"title": "Kindertageseinrichtung Abenteuerland",
		"subtitle": "Der Name \"Abenteuerland\" ist bei uns Programm!",
		"address": "Lendersbergstraße 48, 53721 Siegburg",
		"openHours": "",
		"description": "",
		"url": "https://siegburg.de/familie-bildung/kindergaerten-kindertagespflege/kaldauen/kindertageseinrichtung-abenteuerland/index.html",
		"cityId": 16,
		"categoryName": "Kindergartens",
		"distance": 521
	}, {
		"id": 10470,
		"latitude": 50.8072459,
		"longitude": 7.2488288,
		"icon": "",
		"title": "Kindertagesstätte Murkel Haus I",
		"subtitle": "Familienzentrum NRW",
		"address": "Lendersbergstraße 28, 53721 Siegburg",
		"openHours": "",
		"description": "",
		"url": "https://siegburg.de/familie-bildung/kindergaerten-kindertagespflege/kaldauen/kindertagesstaette-murkel-haus-i/index.html",
		"cityId": 16,
		"categoryName": "Kindergartens",
		"distance": 521
	}, {
		"id": 10471,
		"latitude": 50.8076629639,
		"longitude": 7.250813961,
		"icon": "",
		"title": "Kindertageseinrichtung Abenteuerland",
		"subtitle": "Der Name \"Abenteuerland\" ist bei uns Programm!",
		"address": "Lendersbergstraße 48, 53721 Siegburg",
		"openHours": "",
		"description": "",
		"url": "https://siegburg.de/familie-bildung/kindergaerten-kindertagespflege/kaldauen/kindertageseinrichtung-abenteuerland/index.html",
		"cityId": 16,
		"categoryName": "Kindergartens",
		"distance": 521
	}, {
		"id": 10472,
		"latitude": 50.8076629639,
		"longitude": 7.250813961,
		"icon": "",
		"title": "Kindertagesstätte Murkel Haus I",
		"subtitle": "Familienzentrum NRW",
		"address": "Lendersbergstraße 28, 53721 Siegburg",
		"openHours": "",
		"description": "",
		"url": "https://siegburg.de/familie-bildung/kindergaerten-kindertagespflege/kaldauen/kindertagesstaette-murkel-haus-i/index.html",
		"cityId": 16,
		"categoryName": "Kindergartens",
		"distance": 521
	}, {
		"id": 10468,
		"latitude": 50.8034553528,
		"longitude": 7.2656931877,
		"icon": "",
		"title": "Kindertagesstätte I-Tüpfelchen",
		"subtitle": "",
		"address": "Römerstraße 36a, 53721 Siegburg",
		"openHours": "",
		"description": "",
		"url": "https://siegburg.de/familie-bildung/kindergaerten-kindertagespflege/kaldauen/kindertagesstaette-i-tuepfelchen/index.html",
		"cityId": 16,
		"categoryName": "Kindergartens",
		"distance": 522
	}, {
		"id": 10469,
		"latitude": 50.8036689758,
		"longitude": 7.2616276741,
		"icon": "",
		"title": "Katholische Kindertagestätte Liebfrauen",
		"subtitle": "Mitglied im Katholischen Familienzentrum",
		"address": "Marienstraße 15, 53721 Siegburg",
		"openHours": "",
		"description": "",
		"url": "https://siegburg.de/familie-bildung/kindergaerten-kindertagespflege/kaldauen/katholische-kindertagestaette-liebfrauen/index.html",
		"cityId": 16,
		"categoryName": "Kindergartens",
		"distance": 522
	}, {
		"id": 10456,
		"latitude": 50.8212928772,
		"longitude": 7.2841210365,
		"icon": "",
		"title": "Kindertagesstätte Purzelbaum",
		"subtitle": "Familienzentrum Stallberg / Braschoss",
		"address": "Braschosser Straße 84, 53721 Siegburg",
		"openHours": "",
		"description": "",
		"url": "https://siegburg.de/familie-bildung/kindergaerten-kindertagespflege/braschoss/kindertagesstaette-purzelbaum/index.html",
		"cityId": 16,
		"categoryName": "Kindergartens",
		"distance": 523
	}]
}
